[{"nazwa":"Centrum Wina Puławska","opis":"","kategoria":"Centrum Wina","adres":"ul. Puławska 336\n02-845 Warszawa","telefon":" 22 566 34 80","id":5195,"lon":"21.01669358399","lat":"52.14166415","published":true,"email":"skleppulawska@centrumwina.pl","telefon_odbierz":" 666 666 666","email_odbierz":"zamowienia@centrumwina.pl"},{"nazwa":"Centrum Wina CH Reduta","opis":"opis","kategoria":"Centrum Wina","adres":"Al. Jerozolimskie 148\n02-326 Warszawa","telefon":"22 823 90 73","id":5196,"lon":"20.951437969074","lat":"52.2130113","published":true,"email":"reduta@centrumwina.pl","telefon_odbierz":"666 666 666","email_odbierz":"zamowienia@centrumwina.pl"},{"nazwa":"Centrum CH Wina Arkadia","opis":"","kategoria":"Centrum Wina","adres":"Al. Jana Pawła II 82\n00-175 Warszawa","telefon":"22 331 25 91 ","id":5197,"lon":"20.984573513196","lat":"52.25723","published":true,"email":"arkadia@centrumwina.pl","telefon_odbierz":"666 666 666","email_odbierz":"zamowienia@centrumwina.pl"},{"nazwa":"Centrum Wina CH Wileńska","opis":"","kategoria":"Centrum Wina","adres":"ul. Targowa 72\n03-700 Warszawa","telefon":"22 331 60 16","id":5203,"lon":"21.037989766215","lat":"52.25527","published":true,"email":"wilenska@centrumwian.pl","telefon_odbierz":"666 666 666","email_odbierz":"zamowienia@centrumwina.pl"},{"nazwa":"Centrum Wina CH Targówek","opis":"","kategoria":"Centrum Wina","adres":"ul. Głębocka 15\n03-287 Warszawa\n","telefon":"22 675 07 19","id":5204,"lon":"21.057831162136","lat":"52.3039117","published":true,"email":"targowek@centrumwina.pl","telefon_odbierz":"666 666 666","email_odbierz":"zamowienia@centrumwina.pl"},{"nazwa":"Centrum Wina CH Galeria Mokotów    ","opis":"","kategoria":"Centrum Wina","adres":"ul. Wołoska 12,\n02-675 Warszawa","telefon":"22 161 38 85","id":5205,"lon":"21.003915316043","lat":"52.17999285","published":true,"email":"gmokotow@centrumwina.pl","telefon_odbierz":"666 666 666","email_odbierz":"zamowienia@centrumwina.pl"},{"nazwa":"Centrum Wina Galeria Północna","opis":"","kategoria":"Centrum Wina","adres":"Ul. Światowida 17\n03-144 Warszawa\n","telefon":"780 014 822","id":5206,"lon":"20.966839421805","lat":"52.3174284","published":true,"email":"gpolnocna@centrumwina.pl","telefon_odbierz":"666 666 666","email_odbierz":"zamowienia@centrumwina.pl"},{"nazwa":"Centrum Wina CH Promenada","opis":"","kategoria":"Centrum Wina","adres":"Ostrobramska 75c\n04-175 Warszawa\n","telefon":"797 728 003","id":5207,"lon":"21.1055354","lat":"52.2316295","published":true,"email":"Promenada@centrumwina.pl","telefon_odbierz":"666 666 666","email_odbierz":"zamowienia@centrumwina.pl"},{"nazwa":"Centrum Wina CH Janki","opis":"","kategoria":"Centrum Wina","adres":"ul. Mszczonowska 3,\n05-090 Janki k/Warszawy\n\n","telefon":"22 716 29 99","id":5208,"lon":"20.8906485","lat":"52.1355308","published":true,"email":"janki@centrumwina.pl","telefon_odbierz":"666 666 666","email_odbierz":"zamowienia@centrumwina.pl"},{"nazwa":"Centrum Wina The Warsaw Hub","opis":"","kategoria":"Centrum Wina","adres":"Rondo Daszyńskiego 2B,\nWarszawa","telefon":"221 662 122","id":5209,"lon":"20.9828365","lat":"52.2300549","published":true,"email":"warsawhub@centrumwina.pl","telefon_odbierz":"666 666 666","email_odbierz":"zamowienia@centrumwina.pl"},{"nazwa":"Centrum Wina CH Manhattan ","opis":"","kategoria":"Centrum Wina","adres":"ul. Grunwaldzka 82\n80-244 Gdańsk\n","telefon":"58 767 72 35","id":5211,"lon":"18.607099478047","lat":"54.3772243","published":true,"email":"manhattan@centrumwina.pl","telefon_odbierz":"666 666 666","email_odbierz":"zamowienia@centrumwina.pl"},{"nazwa":"Centrum Wina CH Galeria Bałtycka","opis":"","kategoria":"Centrum Wina","adres":"Al. Grunwaldzka 141,\n80-264 Gdańsk\n","telefon":"58 552 43 30","id":5212,"lon":"18.600696855155","lat":"54.3826251","published":true,"email":"gbaltycka@centrumwina.pl","telefon_odbierz":"666 666 666","email_odbierz":"zamowienia@centrumwina.pl"},{"nazwa":"CH Riviera","opis":"","kategoria":"Centrum Wina","adres":"ul. Kazimierza Górskiego 2\n81-304 Gdynia","telefon":"58 779 06 98","id":5213,"lon":"18.532863030493","lat":"54.5030148","published":true,"email":"riviera@centrumwina.pl","telefon_odbierz":"666 666 666","email_odbierz":"zamowienia@centrumwina.pl"},{"nazwa":"Centrum Wina Świętojańska","opis":"","kategoria":"Centrum Wina","adres":"ul. Świętojańska 13,\nGdynia\n","telefon":"58 6202059","id":5214,"lon":"18.5430985","lat":"54.5201034","published":true,"email":"swietojanska@centrumwina.pl","telefon_odbierz":"666 666 666","email_odbierz":"zamowienia@centrumwina.pl"},{"nazwa":"Centrum Wina CH Forum ","opis":"","kategoria":"Centrum Wina","adres":"ul. Targ Sienny 7,\n80-806 Gdańsk","telefon":"512 073 002","id":5215,"lon":"18.643381014578","lat":"54.3488736","published":true,"email":"forum@centrumwina.pl","telefon_odbierz":"666 666 666","email_odbierz":"zamowienia@centrumwina.pl"},{"nazwa":"Centrum Wina CH Zielone Arkady","opis":"","kategoria":"Centrum Wina","adres":"ul. Wojska Polskiego 1\n85-171 Bydgoszcz\n","telefon":"52 321 38 97","id":5216,"lon":"18.010540771696","lat":"53.1157999","published":true,"email":"zielonearkady@centrumwina.pl","telefon_odbierz":"666 666 666","email_odbierz":"zamowienia@centrumwina.pl"},{"nazwa":"Centrum Wina Galeria Pomorska","opis":"","kategoria":"Centrum Wina","adres":"ul. Fordońska 141\n85-752 Bydgoszcz\n","telefon":"523 211 068","id":5217,"lon":"18.067226263232","lat":"53.1250465","published":true,"email":"GaleriaPomorska@centrumwina.pl","telefon_odbierz":"666 666 666","email_odbierz":"zamowienia@centrumwina.pl"},{"nazwa":"Centrum Wina CH Felicity","opis":"","kategoria":"Centrum Wina","adres":"Al. Wincentego Witosa 32,\n20-315 Lublin","telefon":"81 452 88 88","id":5218,"lon":"22.613358536976","lat":"51.23224035","published":true,"email":"felicity@centrumwina.pl","telefon_odbierz":"666 666 666","email_odbierz":"zamowienia@centrumwina.pl"},{"nazwa":"Centrum Wina CH Zakopianka ","opis":"","kategoria":"Centrum Wina","adres":"ul. Zakopiańska 62\n30-418 Kraków","telefon":"12 29 33 194","id":5219,"lon":"19.9317634","lat":"50.0135031","published":true,"email":"zakopianka@centrumwina.pl","telefon_odbierz":"666 666 666","email_odbierz":"zamowienia@centrumwina.pl"},{"nazwa":"Centrum Wina CH Galeria Krakowska   ","opis":"","kategoria":"Centrum Wina","adres":"ul. Pawia 5,\n31-154 Karków","telefon":"12 628 72 32","id":5220,"lon":"19.946146666337","lat":"50.0675936","published":true,"email":"gkrakowska@centrumwina.pl","telefon_odbierz":"666 666 666","email_odbierz":"zamowienia@centrumwina.pl"},{"nazwa":"Centrum Wina CH Serenada ","opis":"","kategoria":"Centrum Wina","adres":"Aleja Generała Tadeusza Bora-Komorowskiego 41\n31-876 Kraków\n","telefon":"506 012 072","id":5221,"lon":"19.9851003","lat":"50.0877279","published":true,"email":"serenada@centrumwina.pl","telefon_odbierz":"666 666 666","email_odbierz":"zamowienia@centrumwina.pl"},{"nazwa":"Centrum Wina Stary Browar","opis":"","kategoria":"Centrum Wina","adres":"ul. Półwiejska 42,\nPoznań","telefon":"61 667 11 83","id":5222,"lon":"16.92786318856","lat":"52.4014337","published":true,"email":"starybrowar@centrumwina.pl","telefon_odbierz":"666 666 666","email_odbierz":"zamowienia@centrumwina.pl"},{"nazwa":"Centrum Wina CH Posnania","opis":"","kategoria":"Centrum Wina","adres":"ul. Pleszewska 1\n61-136 Poznań ","telefon":"506 316 985","id":5223,"lon":"16.9560043","lat":"52.3959874","published":true,"email":"posnania@centrumwina.pl","telefon_odbierz":"666 666 666","email_odbierz":"zamowienia@centrumwina.pl"},{"nazwa":"Centrum Wina CH Borek","opis":"","kategoria":"Centrum Wina","adres":"ul. Hallera 52,\n53-324 Wrocław","telefon":"71 783 17 29","id":5224,"lon":"16.998213352666","lat":"51.088489","published":true,"email":"borek@centrumwina.pl","telefon_odbierz":"666 666 666","email_odbierz":"zamowienia@centrumwina.pl"},{"nazwa":"Centrum Wina CH Magnolia Park","opis":"","kategoria":"Centrum Wina","adres":"ul. Legnicka 58\n54-204 Wrocław\n","telefon":"508 000 713","id":5225,"lon":"16.98882445813","lat":"51.1191288","published":true,"email":"magnolia@centrumwina.pl","telefon_odbierz":"666 666 666 ","email_odbierz":"zamowienia@centrumwina.pl"},{"nazwa":"Centrum Wina CH Pasaż Grunwaldzki ","opis":"","kategoria":"Centrum Wina","adres":"ul. Plac Grunwaldzki 22\n50-363 Wrocław","telefon":"713241152","id":5226,"lon":"17.059312809451","lat":"51.11257535","published":true,"email":"pasazgrunwaldzki@centrumwina.pl","telefon_odbierz":"666 666 666","email_odbierz":"zamowienia@centrumwina.pl"},{"nazwa":"Centrum Wina CH Galeria Dominikańska","opis":"","kategoria":"Centrum Wina","adres":"Pl. Dominikański 3,\n50-159 Wrocław","telefon":"71 3470305","id":5227,"lon":"17.040575365781","lat":"51.10849775","published":true,"email":"dominikanska@centrumwina.pl","telefon_odbierz":"666 666 666","email_odbierz":"zamowienia@centrumwina.pl"},{"nazwa":"Centrum Wina CH Aleja Bielany","opis":"","kategoria":"Centrum Wina","adres":"ul. Czekoladowa 7-9,\n55-040 Bielany Wrocławskie","telefon":"500 030 224 ","id":5228,"lon":"16.962675734062","lat":"51.0488984","published":true,"email":"aleja@centrumwina.pl","telefon_odbierz":"666 666 666","email_odbierz":"zamowienia@centrumwina.pl"},{"nazwa":"Centrum Wina Inny Świat","opis":".","kategoria":"Centrum Wina","adres":"ul. Jagiellońska 8\n05-118 Legionowo","telefon":"22 766 27 50","id":5229,"lon":"20.9354987","lat":"52.3974242","published":true,"email":"innyswiat@op.pl","telefon_odbierz":"666 666 666","email_odbierz":"zamowienia@centrumwina.pl"},{"nazwa":"Centrum Wina CH Korona","opis":"","kategoria":"Centrum Wina","adres":"ul. Warszawska 26\n25-312 Kielce\n","telefon":"511 825 640","id":5230,"lon":"20.635873493094","lat":"50.875746","published":true,"email":"kielce@centrumwina.pl","telefon_odbierz":"666 666 666","email_odbierz":"zamowienia@centrumwina.pl"},{"nazwa":"Centrum Wina CH Arena","opis":".","kategoria":"Centrum Wina","adres":"ul. JN Jeziorańskiego 1,\n44-102 Gliwice\n","telefon":"32 775 15 87","id":5231,"lon":"18.648505310808","lat":"50.30647965","published":true,"email":"arena@centrumwina.pl","telefon_odbierz":"666 666 666","email_odbierz":"zamowienia@centrumwina.pl"},{"nazwa":"Centrum Wina Silesia City Center ","opis":"","kategoria":"Centrum Wina","adres":"ul. Chorzowska 107,\nKatowice\n","telefon":" 32 605 09 34","id":5232,"lon":"19.003866947211","lat":"50.27072305","published":true,"email":"silesia@centrumwina.pl","telefon_odbierz":"666 666 666","email_odbierz":"zamowienia@centrumwina.pl"},{"nazwa":"Centrum Wina Galeria Katowicka ","opis":"","kategoria":"Centrum Wina","adres":"ul. 3 - go Maja 30\n40-097 Katowice","telefon":"502 308 474","id":5233,"lon":"19.016912450258","lat":"50.2588783","published":true,"email":"katowicka@centrumwina.pl","telefon_odbierz":"666 666 666","email_odbierz":"zamowienia@centrumwina.pl"},{"nazwa":"Centrum Wina CH Magdalenka","opis":".","kategoria":"Centrum Wina","adres":"ul. Słoneczna 314\n05-506 Lesznowola","telefon":".","id":5248,"lon":"20.9180688","lat":"52.0972011","published":true,"email":"lesznowola@centrumwina.pl","telefon_odbierz":"666 666 666","email_odbierz":"zamowienia@centrumwina.pl"}]